  - name: Home
    latitude: !secret myhome_latitude
    longitude: !secret myhome_longitude
    radius: 50
    icon: mdi:home

  - name: SLB
    latitude: !secret work_latitude
    longitude: !secret work_longitude
    radius: 50
    icon: mdi:office-building
  
  - name: Kindergarden
    latitude: !secret kindergargen_latitude
    longitude: !secret kindergarden_longitude
    radius: 50
    icon: mdi:baby-buggy
  
  - name: Dacha
    latitude: !secret dacha_latitude
    longitude: !secret dacha_longitude
    radius: 100
    icon: mdi:home-variant
  
  - name: Parents
    latitude: !secret parents_latitude
    longitude: !secret parents_longitude
    radius: 50
    icon: mdi:home-variant-outline
  
  - name: S_Parents
    latitude: !secret s_parents_latitude
    longitude: !secret s_parents_longitude
    radius: 50
    icon: mdi:home-circle
    
  - name: Aviapark
    latitude: 55.790381
    longitude: 37.531244
    radius: 304.8
    icon: mdi:airplane

  - name: CDEK
    latitude: 55.824199
    longitude: 37.565962
    radius: 76
    icon: mdi:truck-delivery

  - name: Chess school
    latitude: 55.828553
    longitude: 37.578392
    radius: 76
    icon: mdi:chess-rook

  - name: Dentist
    latitude: 55.715384
    longitude: 37.621789
    radius: 76
    icon: mdi:doctor

  - name: Dubki
    latitude: 55.82073
    longitude: 37.566011
    radius: 167
    icon: mdi:pine-tree

  - name: English Lessons
    latitude: 55.814992
    longitude: 37.573785
    radius: 76
    icon: mdi:book-open-variant

  - name: Gym
    latitude: 55.824231
    longitude: 37.497101
    radius: 142.46807861328
    icon: mdi:dumbbell

  - name: Iskra
    latitude: 55.81446
    longitude: 37.571139
    radius: 76.199996948242
    icon: mdi:filmstrip

  - name: Manfit
    latitude: 55.807359
    longitude: 37.588477
    radius: 76
    icon: mdi:dumbbell

  - name: METRO
    latitude: 55.800704
    longitude: 37.594451
    radius: 102.59
    icon: mdi:shopping

  - name: School
    latitude: 55.813382
    longitude: 37.568983
    radius: 76
    icon: mdi:school

  - name: XL
    latitude: 55.864009
    longitude: 37.545971
    radius: 89.293617248535
    icon: mdi:shopping
