  - name: MyHome
    latitude: 55.8120671
    longitude: 37.5571598
    radius: 50
    icon: mdi:home
  - name: MyWork
    latitude: 55.8222106
    longitude: 37.4992774
    radius: 50
    icon: mdi:office-building
  - name: Kindergarden
    latitude: 55.8185928
    longitude: 37.5633842
    radius: 50
    icon: mdi:baby-buggy
  - name: Dacha
    latitude: 55.5896391
    longitude: 37.1813247
    radius: 50
    icon: mdi:home-variant
  - name: Parents
    latitude: 55.6330641
    longitude: 37.5313544
    radius: 50
    icon: mdi:home-variant-outline
  - name: S_Parents
    latitude: 55.811556
    longitude: 37.5766491
    radius: 50
    icon: mdi:home-circle
